store_id,store_name,latitude,longitude,address
S1,BlinkMart,17.3850,78.4867,Ameerpet - Hyderabad
S2,FreshBasket,17.4400,78.3489,HITEC City - Hyderabad
S3,QuickStop,17.3616,78.4747,Charminar - Hyderabad
S4,MegaMart,17.4260,78.4480,Secunderabad - Hyderabad
S5,GreenGrocer,17.3950,78.5500,Uppal - Hyderabad
S6,DailyNeeds,17.4960,78.3910,Kukatpally - Hyderabad
S7,SmartShop,17.3500,78.5520,LB Nagar - Hyderabad
